;addr_build;addr_lat;addr_lng;addr_metro;addr_street;city;employer_name;employer_url;employer_url_vacancy;vac_money_cur;vac_money_from;vac_money_to;vac_name
0;;;;;;Санкт-Петербург;FBS Inc.;https://api.hh.ru/employers/681575;https://hh.ru/vacancy/25539629;RUR;120000.0;200000.0;Системный администратор Linux
1;;;;;;Санкт-Петербург;AmRest;https://api.hh.ru/employers/217918;https://hh.ru/vacancy/28032550;RUR;100000.0;;IT Infrastructure and Security Leader / Системный администратор
2;44;59.98994;30.318815;;Сердобольская улица;Санкт-Петербург;Lenvendo;https://api.hh.ru/employers/1227460;https://hh.ru/vacancy/28285801;RUR;70000.0;150000.0;Системный администратор Linux
3;;;;;;Санкт-Петербург;AmRest;https://api.hh.ru/employers/217918;https://hh.ru/vacancy/28032550;RUR;100000.0;;IT Infrastructure and Security Leader / Системный администратор
4;5Л;59.828161;30.304307;Звёздная;4-й Предпортовый проезд;Санкт-Петербург;Калитко Виктория;https://api.hh.ru/employers/3671114;https://hh.ru/vacancy/27975162;RUR;70000.0;80000.0;Программист 1С/Системный администратор
5;199-201А;59.909567;30.28422;Балтийская;набережная Обводного канала;Санкт-Петербург;Крауд;https://api.hh.ru/employers/1176181;https://hh.ru/vacancy/28335732;RUR;60000.0;80000.0;Старший системный администратор
6;;;;;;Санкт-Петербург;Хеликс, лабораторная служба;https://api.hh.ru/employers/159033;https://hh.ru/vacancy/28133217;RUR;90000.0;;Старший системный администратор
7;199-201А;59.909567;30.28422;Балтийская;набережная Обводного канала;Санкт-Петербург;Крауд;https://api.hh.ru/employers/1176181;https://hh.ru/vacancy/28335732;RUR;60000.0;80000.0;Старший системный администратор
8;21А;59.966015;30.338327;Выборгская;Пироговская наб.;Санкт-Петербург;Cbonds.ru;https://api.hh.ru/employers/3152;https://hh.ru/vacancy/27958205;RUR;65000.0;;Системный администратор
9;13З;59.967381;30.287176;Чкаловская;Левашовский проспект;Санкт-Петербург;404 Group;https://api.hh.ru/employers/1085814;https://hh.ru/vacancy/28151562;RUR;80000.0;;Системный администратор
10;21А;59.966015;30.338327;Выборгская;Пироговская наб.;Санкт-Петербург;Cbonds.ru;https://api.hh.ru/employers/3152;https://hh.ru/vacancy/27958205;RUR;65000.0;;Системный администратор
11;;;;;;Санкт-Петербург;Красное & Белое, розничная сеть;https://api.hh.ru/employers/1035394;https://hh.ru/vacancy/25720958;RUR;62000.0;87000.0;Системный администратор
12;;;;;;Санкт-Петербург;АртВизио;https://api.hh.ru/employers/1179627;https://hh.ru/vacancy/28123720;RUR;70000.0;100000.0;Системный администратор Linux
13;;;;;;Санкт-Петербург;Красное & Белое, розничная сеть;https://api.hh.ru/employers/1035394;https://hh.ru/vacancy/25720958;RUR;62000.0;87000.0;Системный администратор
14;;;;;;Санкт-Петербург;АртВизио;https://api.hh.ru/employers/1179627;https://hh.ru/vacancy/28123720;RUR;70000.0;100000.0;Системный администратор Linux
15;29;59.910379;30.306948;;Измайловский проспект;Санкт-Петербург;Решение;https://api.hh.ru/employers/214731;https://hh.ru/vacancy/28452628;RUR;40000.0;80000.0;Системный администратор
16;5Л;59.828161;30.304307;Звёздная;4-й Предпортовый проезд;Санкт-Петербург;Калитко Виктория;https://api.hh.ru/employers/3671114;https://hh.ru/vacancy/27975162;RUR;70000.0;80000.0;Программист 1С/Системный администратор
17;39;59.942804;30.364233;Чернышевская;Радищева;Санкт-Петербург;Смарт Телеком;https://api.hh.ru/employers/227613;https://hh.ru/vacancy/27072832;RUR;67800.0;;Сетевой инженер + Системный администратор *nix
18;128;59.854436;30.481239;Пролетарская;проспект Обуховской Обороны;Санкт-Петербург;ВНИИРА;https://api.hh.ru/employers/598722;https://hh.ru/vacancy/25836379;RUR;80000.0;90000.0;Системный администратор (Linux, Solaris)
19;;;;;;Санкт-Петербург;Линк-Ми;https://api.hh.ru/employers/1185261;https://hh.ru/vacancy/27983879;RUR;;90000.0;Системный администратор
20;16а;59.915837;30.329747;Технологический институт;Рузовская улица;Санкт-Петербург;Банк Оранжевый;https://api.hh.ru/employers/181567;https://hh.ru/vacancy/26701066;RUR;65000.0;;Старший системный администратор
21;16а;59.915837;30.329747;Технологический институт;Рузовская улица;Санкт-Петербург;Банк Оранжевый;https://api.hh.ru/employers/181567;https://hh.ru/vacancy/26701066;RUR;65000.0;;Старший системный администратор
22;21А;59.999921;30.256418;Комендантский проспект;Гаккелевская улица;Санкт-Петербург;Амбреллио;https://api.hh.ru/employers/2058497;https://hh.ru/vacancy/28274221;RUR;100000.0;150000.0;System Administrator Linux (DevOps)
23;1;59.831245;30.344866;Звёздная;Звёздная улица;Санкт-Петербург;Fortis;https://api.hh.ru/employers/2496609;https://hh.ru/vacancy/27382879;RUR;90000.0;;Администратор баз данных
24;1;59.831245;30.344866;Звёздная;Звёздная улица;Санкт-Петербург;Fortis;https://api.hh.ru/employers/2496609;https://hh.ru/vacancy/27382879;RUR;90000.0;;Администратор баз данных
25;22к2;59.888591;30.327672;Московские ворота;Заставская улица;Санкт-Петербург;SEMrush;https://api.hh.ru/employers/789662;https://hh.ru/vacancy/26887936;RUR;120000.0;;System Administrator (Linux)
26;23Д;59.97233;30.311403;Петроградская;улица Профессора Попова;Санкт-Петербург;Click;https://api.hh.ru/employers/2053040;https://hh.ru/vacancy/28073674;RUR;100000.0;140000.0;DevOPS разработчик
27;69-71;59.921033;30.343177;;улица Марата;Санкт-Петербург;ТЕК РАУНД СПБ;https://api.hh.ru/employers/1901449;https://hh.ru/vacancy/28226001;RUR;100000.0;200000.0;Программист c#, backend
28;;;;;;Санкт-Петербург;Протей, НТЦ;https://api.hh.ru/employers/22863;https://hh.ru/vacancy/28030733;RUR;70000.0;100000.0;Специалист по ОС Linux
29;27;59.937107;30.322147;Адмиралтейская;Большая Конюшенная улица;Санкт-Петербург;ММО ПЕРВЫЙ ЭЛЕКТРОННЫЙ СУПЕРМАРКЕТ КОНСАЛТИНГА ТОТАЛКОНСАЛТ;https://api.hh.ru/employers/3365441;https://hh.ru/vacancy/28463324;RUR;50000.0;80000.0;Заместитель главного бухгалтера/бухгалтер в одном лице
30;2;59.97387;30.333691;Выборгская;Гельсингфорсская улица;Санкт-Петербург;СКБ Контур;https://api.hh.ru/employers/41862;https://hh.ru/vacancy/25822395;RUR;70000.0;;Менеджер по работе с корпоративными клиентами (B2B)
31;5;59.981924;30.33052;;Кантемировская улица;Санкт-Петербург;НИИ МАСШТАБ;https://api.hh.ru/employers/841097;https://hh.ru/vacancy/26634089;RUR;70000.0;130000.0;Сетевой инженер-разработчик
32;45;60.036555;30.358897;Озерки;проспект Луначарского;Санкт-Петербург;Ленинградская областная клиническая больница;https://api.hh.ru/employers/1735365;https://hh.ru/vacancy/28391763;RUR;100000.0;120000.0;Руководитель внедрения информационных систем
33;2;59.97387;30.333691;Выборгская;Гельсингфорсская улица;Санкт-Петербург;СКБ Контур;https://api.hh.ru/employers/41862;https://hh.ru/vacancy/28126103;RUR;70000.0;;Менеджер по работе с корпоративными клиентами
