;addr_build;addr_lat;addr_lng;addr_metro;addr_street;city;employer_name;employer_url;employer_url_vacancy;vac_money_cur;vac_money_from;vac_money_to;vac_name
0;;;;Пионерская;;Санкт-Петербург;Телеком Клуб;https://api.hh.ru/employers/3076055;https://hh.ru/vacancy/30026702;RUR;80000.0;;Системный администратор интернет проектов
1;22;59.937734;30.387904;Площадь Восстания;улица Моисеенко;Санкт-Петербург;Дата Драйверс;https://api.hh.ru/employers/3874078;https://hh.ru/vacancy/30008195;RUR;125000.0;150000.0;Системный администратор Linux
2;271к1;59.851019;30.478535;Пролетарская;проспект Обуховской Обороны;Санкт-Петербург;Дейтерий;https://api.hh.ru/employers/1144757;https://hh.ru/vacancy/29567286;RUR;80000.0;;Системный администратор
3;метро Чкаловская;59.960985;30.292099;;5 линия;Санкт-Петербург;FBS Inc.;https://api.hh.ru/employers/681575;https://hh.ru/vacancy/25539629;RUR;120000.0;200000.0;Системный администратор Linux
4;12В;60.077265;30.35578;Парнас;6-й Верхний переулок;Санкт-Петербург;Петрович, Строительный Торговый Дом;https://api.hh.ru/employers/77364;https://hh.ru/vacancy/29931515;RUR;80000.0;130000.0;Системный администратор Linux
5;17к2;59.986776;30.32115;Чёрная речка;Белоостровская улица;Санкт-Петербург;Смарт Лайн;https://api.hh.ru/employers/1528668;https://hh.ru/vacancy/29984854;RUR;;120000.0;Системный администратор
6;4;59.9952109863;30.248383873;Старая Деревня;улица Оптиков;Санкт-Петербург;Центр информационных проектов;https://api.hh.ru/employers/1351596;https://hh.ru/vacancy/29605543;RUR;80000.0;;Системный администратор
7;;;;Петроградская;;Санкт-Петербург;B2Broker;https://api.hh.ru/employers/2234168;https://hh.ru/vacancy/29958656;RUR;60000.0;100000.0;Системный администратор Linux (Техническая поддержка)
8;13к2;59.992821;30.381562;Площадь Мужества;Кушелевская дорога;Санкт-Петербург;Специальный Технологический Центр;https://api.hh.ru/employers/2519536;https://hh.ru/vacancy/29303962;RUR;80000.0;;Системный администратор DevOps
9;136;59.908642;30.283277;Балтийская;набережная Обводного канала;Санкт-Петербург;Лаборатория Цифрового Зрения;https://api.hh.ru/employers/2412748;https://hh.ru/vacancy/29936021;RUR;80000.0;;Системный администратор
10;26;59.941651;30.349474;Чернышевская;Литейный проспект;Санкт-Петербург;ИТ-ГРАД;https://api.hh.ru/employers/3862738;https://hh.ru/vacancy/29879723;RUR;80000.0;;Системный администратор IaaS (Cloud Administrator)
11;26;59.941651;30.349474;Чернышевская;Литейный проспект;Санкт-Петербург;ИТ-ГРАД;https://api.hh.ru/employers/3862738;https://hh.ru/vacancy/29879771;RUR;80000.0;;Системный администратор (IaaS / Microsoft / Windows)
12;;;;Площадь Восстания;;Санкт-Петербург;Jibrel Network;https://api.hh.ru/employers/3051376;https://hh.ru/vacancy/29617447;USD;2000.0;3000.0;System Administrator / DevOps Engineer
13;Б;59.9906856683;30.2600375377;Старая Деревня;Торфяная дорога 7;Санкт-Петербург;SPB TV;https://api.hh.ru/employers/955257;https://hh.ru/vacancy/29786717;RUR;100000.0;150000.0;Linux System Administrator
14;5Б;59.953813;30.291066;Спортивная;Малый проспект Петроградской стороны;Санкт-Петербург;Draewil;https://api.hh.ru/employers/2828853;https://hh.ru/vacancy/29766687;RUR;150000.0;;Системный инженер/DevOps engineer
15;;;;;;Санкт-Петербург;RapidSeedbox;https://api.hh.ru/employers/2160182;https://hh.ru/vacancy/30025281;USD;1500.0;3000.0;Linux Sys Admin Manager Needed
16;12-14;59.928654;30.381005;Площадь Восстания;Херсонская улица;Санкт-Петербург;Дженстек;https://api.hh.ru/employers/1128487;https://hh.ru/vacancy/29491978;RUR;100000.0;170000.0;DevOps Engineer
17;22к2;59.888591;30.327672;Московские ворота;Заставская улица;Санкт-Петербург;SEMrush;https://api.hh.ru/employers/789662;https://hh.ru/vacancy/26887936;RUR;120000.0;;System Administrator (Linux)
18;5;59.981924;30.33052;;Кантемировская улица;Санкт-Петербург;НИИ МАСШТАБ;https://api.hh.ru/employers/841097;https://hh.ru/vacancy/29875851;RUR;70000.0;130000.0;Сетевой инженер-разработчик
19;51;59.923396;30.350202;;улица Марата;Санкт-Петербург;Квест Медиа;https://api.hh.ru/employers/2782669;https://hh.ru/vacancy/29739665;RUR;50000.0;100000.0;Middle PHP-разработчик
20;;;;;;Санкт-Петербург;REDMOND;https://api.hh.ru/employers/61826;https://hh.ru/vacancy/29435729;RUR;;100000.0;Руководитель группы инфраструктуры
21;22а;59.888487;30.327708;Московские ворота;Заставская улица;Санкт-Петербург;ТаймВэб;https://api.hh.ru/employers/230159;https://hh.ru/vacancy/29528516;RUR;100000.0;;Администратор баз данных DBA
22;4;59.981231;30.326199;Чёрная речка;Кантемировская улица;Санкт-Петербург;G GROUP;https://api.hh.ru/employers/1827142;https://hh.ru/vacancy/29924644;RUR;100000.0;;Исполнительный директор
23;;;;Василеостровская;;Санкт-Петербург;ETNA;https://api.hh.ru/employers/120618;https://hh.ru/vacancy/29977307;RUR;60000.0;120000.0;Support Specialist / Support Engineer
24;22к2;59.888591;30.327672;Московские ворота;Заставская улица;Санкт-Петербург;SEMrush;https://api.hh.ru/employers/789662;https://hh.ru/vacancy/29999420;RUR;150000.0;;System Engineer (в Прагу)
25;;;;Московские ворота;;Санкт-Петербург;Selectel;https://api.hh.ru/employers/633069;https://hh.ru/vacancy/29816732;RUR;80000.0;;Cистемный администратор сетевого отдела (NetOps)
26;36К1;59.879385;30.440527;Ломоносовская;Бабушкина;Санкт-Петербург;Первый БИТ;https://api.hh.ru/employers/3177;https://hh.ru/vacancy/29303097;RUR;150000.0;;Руководитель офиса
27;;;;;;Санкт-Петербург;Crossover;https://api.hh.ru/employers/1482197;https://hh.ru/vacancy/29953058;USD;5000.0;5000.0;SaaSOps Architect
28;;;;;;Санкт-Петербург;Crossover;https://api.hh.ru/employers/1482197;https://hh.ru/vacancy/29955129;USD;2500.0;2500.0;SaaSOps Engineer
29;49;59.994216;30.388048;;проспект Непокоренных;Санкт-Петербург;Специальный Технологический Центр;https://api.hh.ru/employers/2519536;https://hh.ru/vacancy/25632897;RUR;100000.0;;Старший Web-программист
30;метро Чернышевская;59.944436;30.359975;Чернышевская;1 линия;Санкт-Петербург;the_covert;https://api.hh.ru/employers/3244995;https://hh.ru/vacancy/29951569;RUR;100000.0;;DevOps Specialist
31;;;;;;Санкт-Петербург;Insolar;https://api.hh.ru/employers/3330878;https://hh.ru/vacancy/29871278;RUR;120000.0;250000.0;DevOps Engineer
